[{
  "name": "Sapphire Hotel",
  "location": {
    "address": "5008 SE Hawthorne Blvd",
    "city": "Portland",
    "state": "Oregon",
    "zip": 97215,
    "patio": false,
    "neighborhood": "Mt.Tabor"
  },
  "hours": "Daily 4-6 pm, Sunday-Thursday 10pm-close",
  "description": "$2 Pabst, $4 wells, $5 wine, $6 cocktails, $3-7 menu"
},
{
  "name": "Church",
  "location": {
    "address": "2600 NE Sandy Blvd",
    "city": "Portland",
    "state": "Oregon",
    "zip": 97232,
    "patio": false,
    "neighborhood": "Kerns"
  },  "hours": "Daily 4-7 pm",
  "description": "$1 off house wine, $5-7 cocktails, $5-8 menu"
},
{
  "name": "The Know",
  "location": {
    "address": "3728 NE Sandy Blvd",
    "city": "Portland",
    "state": "Oregon",
    "zip": 97232,
    "patio": true,
    "neighborhood": "Hollywood"
  },
  "hours": "Daily 4-7pm",
  "description": "$1 off draft beer, $2-5 menu"
},
{
  "name": "Roscoes",
  "location": {
    "address": "8105 SE Stark St.",
    "city": "Portland",
    "state": "Oregon",
    "zip": 97220,
    "patio": true,
    "neighborhood": "Montavilla"
  },
  "hours": "Daily 4-6pm",
  "description": "$2.50 well drinks, $3 microbrews, food deals"
}
]
